[
    {
        "city": "Vilnius", 
        "admin": "Vilniaus Miestas", 
        "country": "Lithuania", 
        "population_proper": "507029", 
        "iso2": "LT", 
        "capital": "primary", 
        "lat": "54.683333", 
        "lng": "25.316667", 
        "population": "542366"
    }, 
    {
        "city": "Kaunas", 
        "admin": "Kauno Miestas", 
        "country": "Lithuania", 
        "population_proper": "353046", 
        "iso2": "LT", 
        "capital": "admin", 
        "lat": "54.902716", 
        "lng": "23.909613", 
        "population": "374643"
    }, 
    {
        "city": "Klaip\u0117da", 
        "admin": "Klaip\u0117dos Miestas", 
        "country": "Lithuania", 
        "population_proper": "190361", 
        "iso2": "LT", 
        "capital": "admin", 
        "lat": "55.70888", 
        "lng": "21.143121", 
        "population": "192307"
    }, 
    {
        "city": "Vijoliai", 
        "admin": "", 
        "country": "Lithuania", 
        "population_proper": "130587", 
        "iso2": "LT", 
        "capital": "", 
        "lat": "55.954889", 
        "lng": "23.282076", 
        "population": "133528"
    }, 
    {
        "city": "Pae\u017eerys I", 
        "admin": "Panev\u0117\u017eys", 
        "country": "Lithuania", 
        "population_proper": "117395", 
        "iso2": "LT", 
        "capital": "", 
        "lat": "55.759514", 
        "lng": "24.409858", 
        "population": "127405"
    }, 
    {
        "city": "\u0160al\u010dininkai", 
        "admin": "\u0160al\u010dininkai", 
        "country": "Lithuania", 
        "population_proper": "", 
        "iso2": "LT", 
        "capital": "admin", 
        "lat": "54.308638", 
        "lng": "25.386766", 
        "population": ""
    }, 
    {
        "city": "Skuodas", 
        "admin": "Skuodas", 
        "country": "Lithuania", 
        "population_proper": "", 
        "iso2": "LT", 
        "capital": "admin", 
        "lat": "56.270572", 
        "lng": "21.532077", 
        "population": ""
    }, 
    {
        "city": "Tel\u0161iai", 
        "admin": "Tel\u0161iai", 
        "country": "Lithuania", 
        "population_proper": "", 
        "iso2": "LT", 
        "capital": "admin", 
        "lat": "55.983069", 
        "lng": "22.234348", 
        "population": ""
    }, 
    {
        "city": "Panev\u0117\u017eys", 
        "admin": "Panev\u0117\u017eio Miestas", 
        "country": "Lithuania", 
        "population_proper": "", 
        "iso2": "LT", 
        "capital": "admin", 
        "lat": "55.73186", 
        "lng": "24.359828", 
        "population": ""
    }, 
    {
        "city": "Ignalina", 
        "admin": "Ignalina", 
        "country": "Lithuania", 
        "population_proper": "", 
        "iso2": "LT", 
        "capital": "admin", 
        "lat": "55.340628", 
        "lng": "26.160488", 
        "population": ""
    }, 
    {
        "city": "Palanga", 
        "admin": "Palangos Miestas", 
        "country": "Lithuania", 
        "population_proper": "", 
        "iso2": "LT", 
        "capital": "admin", 
        "lat": "55.920313", 
        "lng": "21.071014", 
        "population": ""
    }, 
    {
        "city": "\u0160irvintos", 
        "admin": "\u0160irvintos", 
        "country": "Lithuania", 
        "population_proper": "", 
        "iso2": "LT", 
        "capital": "admin", 
        "lat": "55.043999", 
        "lng": "24.954462", 
        "population": ""
    }, 
    {
        "city": "Visaginas", 
        "admin": "Visaginas", 
        "country": "Lithuania", 
        "population_proper": "", 
        "iso2": "LT", 
        "capital": "admin", 
        "lat": "55.596775", 
        "lng": "26.439842", 
        "population": ""
    }, 
    {
        "city": "Var\u0117na", 
        "admin": "Var\u0117na", 
        "country": "Lithuania", 
        "population_proper": "", 
        "iso2": "LT", 
        "capital": "admin", 
        "lat": "54.215463", 
        "lng": "24.57538", 
        "population": ""
    }, 
    {
        "city": "Rietavas", 
        "admin": "Rietavo", 
        "country": "Lithuania", 
        "population_proper": "", 
        "iso2": "LT", 
        "capital": "admin", 
        "lat": "55.727082", 
        "lng": "21.923428", 
        "population": ""
    }, 
    {
        "city": "Raseiniai", 
        "admin": "Raseiniai", 
        "country": "Lithuania", 
        "population_proper": "", 
        "iso2": "LT", 
        "capital": "admin", 
        "lat": "55.379732", 
        "lng": "23.123857", 
        "population": ""
    }, 
    {
        "city": "Roki\u0161kis", 
        "admin": "Roki\u0161kis", 
        "country": "Lithuania", 
        "population_proper": "", 
        "iso2": "LT", 
        "capital": "admin", 
        "lat": "55.958668", 
        "lng": "25.594662", 
        "population": ""
    }, 
    {
        "city": "\u0160iauliai", 
        "admin": "\u0160iauli\u0173 Miestas", 
        "country": "Lithuania", 
        "population_proper": "", 
        "iso2": "LT", 
        "capital": "admin", 
        "lat": "55.933333", 
        "lng": "23.316667", 
        "population": ""
    }, 
    {
        "city": "Kazl\u0173 R\u016bda", 
        "admin": "Kazl\u0173 R\u016bdos", 
        "country": "Lithuania", 
        "population_proper": "", 
        "iso2": "LT", 
        "capital": "admin", 
        "lat": "54.749666", 
        "lng": "23.495021", 
        "population": ""
    }, 
    {
        "city": "Ma\u017eeikiai", 
        "admin": "Ma\u017eeikiai", 
        "country": "Lithuania", 
        "population_proper": "", 
        "iso2": "LT", 
        "capital": "admin", 
        "lat": "56.312215", 
        "lng": "22.326509", 
        "population": ""
    }, 
    {
        "city": "Kelm\u0117", 
        "admin": "Kelm\u0117", 
        "country": "Lithuania", 
        "population_proper": "", 
        "iso2": "LT", 
        "capital": "admin", 
        "lat": "55.630085", 
        "lng": "22.934897", 
        "population": ""
    }, 
    {
        "city": "Joni\u0161kis", 
        "admin": "Joni\u0161kis", 
        "country": "Lithuania", 
        "population_proper": "", 
        "iso2": "LT", 
        "capital": "admin", 
        "lat": "56.239394", 
        "lng": "23.615407", 
        "population": ""
    }, 
    {
        "city": "Bir\u017eai", 
        "admin": "Bir\u017eai", 
        "country": "Lithuania", 
        "population_proper": "", 
        "iso2": "LT", 
        "capital": "admin", 
        "lat": "56.198588", 
        "lng": "24.75208", 
        "population": ""
    }, 
    {
        "city": "Bir\u0161tonas", 
        "admin": "Bir\u0161tono", 
        "country": "Lithuania", 
        "population_proper": "", 
        "iso2": "LT", 
        "capital": "admin", 
        "lat": "54.604823", 
        "lng": "24.031141", 
        "population": ""
    }, 
    {
        "city": "Marijampol\u0117", 
        "admin": "Marijampol\u0117", 
        "country": "Lithuania", 
        "population_proper": "", 
        "iso2": "LT", 
        "capital": "admin", 
        "lat": "54.559913", 
        "lng": "23.35412", 
        "population": ""
    }, 
    {
        "city": "Kupi\u0161kis", 
        "admin": "Kupi\u0161kis", 
        "country": "Lithuania", 
        "population_proper": "", 
        "iso2": "LT", 
        "capital": "admin", 
        "lat": "55.840149", 
        "lng": "24.980331", 
        "population": ""
    }, 
    {
        "city": "Radvili\u0161kis", 
        "admin": "Radvili\u0161kis", 
        "country": "Lithuania", 
        "population_proper": "", 
        "iso2": "LT", 
        "capital": "admin", 
        "lat": "55.811144", 
        "lng": "23.541143", 
        "population": ""
    }, 
    {
        "city": "Kretinga", 
        "admin": "Kretinga", 
        "country": "Lithuania", 
        "population_proper": "", 
        "iso2": "LT", 
        "capital": "admin", 
        "lat": "55.888804", 
        "lng": "21.244482", 
        "population": ""
    }, 
    {
        "city": "Jurbarkas", 
        "admin": "Jurbarkas", 
        "country": "Lithuania", 
        "population_proper": "", 
        "iso2": "LT", 
        "capital": "admin", 
        "lat": "55.075561", 
        "lng": "22.764165", 
        "population": ""
    }, 
    {
        "city": "Taurag\u0117", 
        "admin": "Taurag\u0117", 
        "country": "Lithuania", 
        "population_proper": "", 
        "iso2": "LT", 
        "capital": "admin", 
        "lat": "55.252222", 
        "lng": "22.289722", 
        "population": ""
    }, 
    {
        "city": "Kalvarija", 
        "admin": "Kalvarijos", 
        "country": "Lithuania", 
        "population_proper": "", 
        "iso2": "LT", 
        "capital": "admin", 
        "lat": "54.417194", 
        "lng": "23.228296", 
        "population": ""
    }, 
    {
        "city": "Pag\u0117giai", 
        "admin": "Pag\u00e9giai", 
        "country": "Lithuania", 
        "population_proper": "", 
        "iso2": "LT", 
        "capital": "admin", 
        "lat": "55.137935", 
        "lng": "21.913782", 
        "population": ""
    }, 
    {
        "city": "Prienai", 
        "admin": "Prienai", 
        "country": "Lithuania", 
        "population_proper": "", 
        "iso2": "LT", 
        "capital": "admin", 
        "lat": "54.636002", 
        "lng": "23.945849", 
        "population": ""
    }, 
    {
        "city": "\u0160ven\u010dionys", 
        "admin": "\u0160ven\u010dionys", 
        "country": "Lithuania", 
        "population_proper": "", 
        "iso2": "LT", 
        "capital": "admin", 
        "lat": "55.132959", 
        "lng": "26.159531", 
        "population": ""
    }, 
    {
        "city": "Zarasai", 
        "admin": "Zarasai", 
        "country": "Lithuania", 
        "population_proper": "", 
        "iso2": "LT", 
        "capital": "admin", 
        "lat": "55.732247", 
        "lng": "26.251151", 
        "population": ""
    }, 
    {
        "city": "Pasvalys", 
        "admin": "Pasvalys", 
        "country": "Lithuania", 
        "population_proper": "", 
        "iso2": "LT", 
        "capital": "admin", 
        "lat": "56.062507", 
        "lng": "24.399654", 
        "population": ""
    }, 
    {
        "city": "Lazdijai", 
        "admin": "Lazdijai", 
        "country": "Lithuania", 
        "population_proper": "", 
        "iso2": "LT", 
        "capital": "admin", 
        "lat": "54.233263", 
        "lng": "23.514661", 
        "population": ""
    }, 
    {
        "city": "Plung\u0117", 
        "admin": "Plung\u0117", 
        "country": "Lithuania", 
        "population_proper": "", 
        "iso2": "LT", 
        "capital": "admin", 
        "lat": "55.907743", 
        "lng": "21.845554", 
        "population": ""
    }, 
    {
        "city": "K\u0117dainiai", 
        "admin": "K\u0117dainiai", 
        "country": "Lithuania", 
        "population_proper": "", 
        "iso2": "LT", 
        "capital": "admin", 
        "lat": "55.287821", 
        "lng": "23.972748", 
        "population": ""
    }, 
    {
        "city": "\u0160ilut\u0117", 
        "admin": "\u0160ilut\u0117", 
        "country": "Lithuania", 
        "population_proper": "", 
        "iso2": "LT", 
        "capital": "admin", 
        "lat": "55.345331", 
        "lng": "21.473328", 
        "population": ""
    }, 
    {
        "city": "Druskininkai", 
        "admin": "Druskininkai", 
        "country": "Lithuania", 
        "population_proper": "", 
        "iso2": "LT", 
        "capital": "admin", 
        "lat": "54.015728", 
        "lng": "23.987028", 
        "population": ""
    }, 
    {
        "city": "Nida", 
        "admin": "Neringa", 
        "country": "Lithuania", 
        "population_proper": "", 
        "iso2": "LT", 
        "capital": "admin", 
        "lat": "55.3086", 
        "lng": "20.996513", 
        "population": ""
    }, 
    {
        "city": "Jonava", 
        "admin": "Jonava", 
        "country": "Lithuania", 
        "population_proper": "", 
        "iso2": "LT", 
        "capital": "admin", 
        "lat": "55.080139", 
        "lng": "24.275436", 
        "population": ""
    }, 
    {
        "city": "Anyk\u0161\u010diai", 
        "admin": "Anyk\u0161\u010diai", 
        "country": "Lithuania", 
        "population_proper": "", 
        "iso2": "LT", 
        "capital": "admin", 
        "lat": "55.524558", 
        "lng": "25.106609", 
        "population": ""
    }, 
    {
        "city": "\u0160ilal\u0117", 
        "admin": "\u0160ilal\u0117", 
        "country": "Lithuania", 
        "population_proper": "", 
        "iso2": "LT", 
        "capital": "admin", 
        "lat": "55.489801", 
        "lng": "22.186925", 
        "population": ""
    }, 
    {
        "city": "Kai\u0161iadorys", 
        "admin": "Kai\u0161iadorys", 
        "country": "Lithuania", 
        "population_proper": "", 
        "iso2": "LT", 
        "capital": "admin", 
        "lat": "54.865282", 
        "lng": "24.468154", 
        "population": ""
    }, 
    {
        "city": "Elektr\u0117nai", 
        "admin": "Elektr\u00e9nai", 
        "country": "Lithuania", 
        "population_proper": "", 
        "iso2": "LT", 
        "capital": "admin", 
        "lat": "54.786345", 
        "lng": "24.662601", 
        "population": ""
    }, 
    {
        "city": "Mol\u0117tai", 
        "admin": "Mol\u0117tai", 
        "country": "Lithuania", 
        "population_proper": "", 
        "iso2": "LT", 
        "capital": "admin", 
        "lat": "55.224694", 
        "lng": "25.416883", 
        "population": ""
    }, 
    {
        "city": "Pakruojis", 
        "admin": "Pakruojis", 
        "country": "Lithuania", 
        "population_proper": "", 
        "iso2": "LT", 
        "capital": "admin", 
        "lat": "55.978891", 
        "lng": "23.85508", 
        "population": ""
    }, 
    {
        "city": "Utena", 
        "admin": "Utena", 
        "country": "Lithuania", 
        "population_proper": "", 
        "iso2": "LT", 
        "capital": "admin", 
        "lat": "55.497642", 
        "lng": "25.599184", 
        "population": ""
    }, 
    {
        "city": "Alytus", 
        "admin": "Alytaus Miestas", 
        "country": "Lithuania", 
        "population_proper": "", 
        "iso2": "LT", 
        "capital": "admin", 
        "lat": "54.396354", 
        "lng": "24.041416", 
        "population": ""
    }, 
    {
        "city": "\u0160akiai", 
        "admin": "\u0160akiai", 
        "country": "Lithuania", 
        "population_proper": "", 
        "iso2": "LT", 
        "capital": "admin", 
        "lat": "54.953386", 
        "lng": "23.047789", 
        "population": ""
    }, 
    {
        "city": "Akmen\u0117", 
        "admin": "Akmen\u0117", 
        "country": "Lithuania", 
        "population_proper": "", 
        "iso2": "LT", 
        "capital": "admin", 
        "lat": "56.25", 
        "lng": "22.75", 
        "population": ""
    }, 
    {
        "city": "Trakai", 
        "admin": "Trakai", 
        "country": "Lithuania", 
        "population_proper": "", 
        "iso2": "LT", 
        "capital": "admin", 
        "lat": "54.639938", 
        "lng": "24.935993", 
        "population": ""
    }, 
    {
        "city": "Vilkavi\u0161kis", 
        "admin": "Vilkavi\u0161kis", 
        "country": "Lithuania", 
        "population_proper": "", 
        "iso2": "LT", 
        "capital": "admin", 
        "lat": "54.648019", 
        "lng": "23.030463", 
        "population": ""
    }, 
    {
        "city": "Ukmerg\u0117", 
        "admin": "Ukmerg\u0117", 
        "country": "Lithuania", 
        "population_proper": "", 
        "iso2": "LT", 
        "capital": "admin", 
        "lat": "55.249396", 
        "lng": "24.763645", 
        "population": ""
    }
]